{"type":"FeatureCollection","features":[{"type":"Feature","properties":{"Landmark":"First Church of Christ Scientist","Address":"2619 Dwight Way\t","Architect + Date":"Bernard Maybeck (1910)","Link":"http://berkeleyheritage.com/berkeley_landmarks/1christ_scientist.html","Designated":"15 Dec 1975\t","Notes":"#77000283, National Historic Landmark (22 Dec 1977)"},"geometry":{"coordinates":[-122.25583888221936,37.86570795920136],"type":"Point"}},{"type":"Feature","properties":{"Landmark":"Church of the Good Shepard","Address":"1823 Ninth Street at Hearst Avenue\t","Architect + Date":"Charles L. Bugbee (1878)\t","Link":"http://berkeleyheritage.com/berkeley_landmarks/good_shepherd.html","Designated":"15 Dec 1975\t","Notes":"#86003361, National Register of Historic Places (1986)"},"geometry":{"coordinates":[-122.29465417790976,37.87028012252274],"type":"Point"}},{"type":"Feature","properties":{"Landmark":"Westminster Presbyterian Church","Address":"926 Hearst Avenue & 1901 Eighth Street\t","Architect + Date":"Charles Geddes (1879)\t","Link":"http://berkeleyheritage.com/berkeley_landmarks/westminster_presb.html","Designated":"15 Dec 1975\t"},"geometry":{"coordinates":[-122.29569236441831,37.86953518327651],"type":"Point"}},{"type":"Feature","properties":{"Landmark":"St. John's Presbyterian Church","Address":"2640 College Avenue\t","Architect + Date":"Julia Morgan (1908, 1910)\t","Link":"http://berkeleyheritage.com/berkeley_landmarks/st._johns_presb.html","Designated":"15 Dec 1975\t","Notes":"#74000507, National Register of Historic Places (1974)"},"geometry":{"coordinates":[-122.25388063558245,37.862243470295184],"type":"Point"}},{"type":"Feature","properties":{"Landmark":"Berkeley's Woman's City Club","Address":"2315 Durant Avenue\t","Architect + Date":"Julia Morgan (1929–30)\t","Link":"http://berkeleyheritage.com/berkeley_landmarks/city_club1.html","Designated":"15 Dec 1975\t","Notes":"California Historic Landmark No. 908 #77000282, National Register of Historic Places (1977)"},"geometry":{"coordinates":[-122.2627029067454,37.86759593936175],"type":"Point"}},{"type":"Feature","properties":{"Landmark":"Town and Gown Club","Address":"2401 Dwight Way\t","Architect + Date":"Bernard Maybeck (1899)\t","Link":"http://berkeleyheritage.com/eastbay_then-now/paget.html","Designated":"15 Dec 1975\t"},"geometry":{"coordinates":[-122.26057663558164,37.865138939926524],"type":"Point"}},{"type":"Feature","properties":{"Landmark":"Berkeley City Hall","Address":"2134 Grove Street (now Martin Luther King, Jr. Way)\t","Architect + Date":"John Bakewell Jr. & Arthur M. Brown Jr. (1907)\t","Link":"http://berkeleyheritage.com/berkeley_landmarks/city_hall.html","Designated":"15 Dec 1975\t","Notes":"Civic Center Historic District; #81000142, National Register of Historic Places (1998)"},"geometry":{"coordinates":[-122.27317463558221,37.869605408351845],"type":"Point"}},{"type":"Feature","properties":{"Landmark":"Thorsen House","Address":"2307 Piedmont Avenue\t","Architect + Date":"Charles Sumner Greene & Henry Mather Greene (1908–10)\t","Link":"http://www.thorsenhouse.org/","Designated":"15 Dec 1975\t","Notes":"#78000647, National Register of Historic Places (1978)"},"geometry":{"coordinates":[-122.2518309067455,37.86907200000074],"type":"Point"}},{"type":"Feature","properties":{"Landmark":"Old Jefferson Elementary School","Address":"1475 Rose Street at Sacramento Street\t","Architect + Date":"Henry Higby Gutterson (c. 1921); William C. Hays (1927)\t","Link":"http://berkeleyheritage.com/berkeley_landmarks/images/Old_Jefferson.jpg","Designated":"11 May 1976\t","Notes":"Structure of Merit Designated Landmark on 16 Mar 1987"},"geometry":{"coordinates":[-122.28355163558192,37.87914434177364],"type":"Point"}},{"type":"Feature","properties":{"Landmark":"Edward F. Niehaus House","Address":"839 Channing Way\t","Architect + Date":"Edward F. Niehaus (1889)","Link":"http://berkeleyheritage.com/berkeley_landmarks/niehaus.html","Designated":"21 Jun 1976\t","Notes":"CA State Historic Resources Inventory"},"geometry":{"coordinates":[-122.29501644907342,37.86210758907119],"type":"Point"}}]}